OBJECTID,Title,Description,LON,LAT,Image URL,Link URL,Link Label,SOURCE,STATUS_1
3605,נתניה,תחנת רכבת נתניה,34.86917201,32.31996333,Image,Link,לפרוייקטים בתחנה/מקטע,נת/ 400/ 7,נוסעים
3606,ירושלים מלחה,תחנת רכבת ירושלים מלחה,35.18808882,31.74774539,Image,Link,לפרוייקטים בתחנה/מקטע,3419/ א,נוסעים
3607,תל אביב - השלום,תחנת רכבת תל אביב - השלום,34.79314027,32.07344749,Image,Link,לפרוייקטים בתחנה/מקטע,1205,נוסעים
3608,תל אביב - ההגנה,תחנת רכבת תל אביב - ההגנה,34.78474539,32.05407699,Image,Link,לפרוייקטים בתחנה/מקטע,1205,נוסעים
3609,תל אביב - אוניברסיטה,תחנת רכבת תל אביב - אוניברסיטה,34.80454185,32.10359285,Image,Link,לפרוייקטים בתחנה/מקטע,1205,נוסעים
3610,תל אביב - דרום (הולץ),תחנת רכבת תל אביב - דרום (הולץ),34.78746693,32.04400892,Image,Link,לפרוייקטים בתחנה/מקטע,תגפ/ 547,תפעולית
3611,הרצליה,תחנת רכבת הרצליה,34.81837682,32.1637356,Image,Link,לפרוייקטים בתחנה/מקטע,"תמא/ 23/ 12, תתל/ 15",נוסעים
3612,כפר ויתקין,תחנת רכבת כפר ויתקין,34.88930826,32.38402428,Image,Link,לפרוייקטים בתחנה/מקטע,עח/ 200,תפעולית
3613,בית יהושוע,תחנת רכבת בית יהושוע,34.86004432,32.26242048,Image,Link,לפרוייקטים בתחנה/מקטע,חש/ 10/ 2,נוסעים
3614,בני ברק,תחנת רכבת בני ברק,34.83007238,32.10303052,,,לפרוייקטים בתחנה/מקטע,"בב/ 572, צו 1, צו 29",נוסעים
3615,עכו,תחנת רכבת עכו,35.08288815,32.92822333,,,לפרוייקטים בתחנה/מקטע,"צו 11, ג/ 12042",נוסעים
3616,נהריה,תחנת רכבת נהריה,35.09865072,33.00494644,,,לפרוייקטים בתחנה/מקטע,"צו 11, ג/ 15798",נוסעים
3617,קיסריה פרדס חנה,תחנת רכבת קיסריה פרדס חנה,34.95398922,32.48529748,,,לפרוייקטים בתחנה/מקטע,"צו 19, ג/ 322/ ב",נוסעים
3618,צפע,תחנת רכבת צפע,35.19022433,31.0566875,,,לפרוייקטים בתחנה/מקטע,"35 /100 /02 /10, צו 34",מסוף מטענים
3619,ראש העין צפון,תחנת רכבת ראש העין צפון,34.93471573,32.12074554,,,לפרוייקטים בתחנה/מקטע,תתל/22,נוסעים
3620,פאתי מודיעין,תחנת רכבת פאתי מודיעין,34.9607187,31.89359364,,,לפרוייקטים בתחנה/מקטע,צו 56,נוסעים
3622,שדרות,תחנת רכבת שדרות,34.58691323,31.51565872,,,לפרוייקטים בתחנה/מקטע,"צו 71, תתל/ 4/ 14/ ב",נוסעים
3623,נתיבות,תחנת רכבת נתיבות,34.57161941,31.41132641,,,לפרוייקטים בתחנה/מקטע,"צו 72, תתל/ 4/ 14/ ב",נוסעים
3624,אשדוד עד הלום,תחנת רכבת אשדוד עד הלום,34.66600075,31.7739465,,,לפרוייקטים בתחנה/מקטע,ד/82/101/02/3,נוסעים
3625,כפר סבא נורדאו,תחנת רכבת כפר סבא נורדאו,34.91730506,32.16740761,,,לפרוייקטים בתחנה/מקטע,הר/113/2,נוסעים
3626,רחובות,תחנת רכבת רחובות,34.80633314,31.9085803,,,לפרוייקטים בתחנה/מקטע,מח/120,נוסעים
3627,עתלית,תחנת רכבת עתלית,34.94036826,32.6928254,,,לפרוייקטים בתחנה/מקטע,ג/ 555,נוסעים
3628,רמלה,תחנת רכבת רמלה,34.87718542,31.92876959,,,לפרוייקטים בתחנה/מקטע,תתל/ 9/ 3,נוסעים
3629,נען,תחנת רכבת נען,34.86924976,31.86788446,,,לפרוייקטים בתחנה/מקטע,תתל/ 3/ 4/ 9/ א,תפעולית
3630,החותרים,תחנת רכבת החותרים,34.95261154,32.75115714,,,לפרוייקטים בתחנה/מקטע,מפת ענפים,תפעולית
3631,דימונה,תחנת רכבת דימונה,35.01141508,31.06920664,,,לפרוייקטים בתחנה/מקטע,תכנית 607-0320622,נוסעים
3632,דור,תחנת רכבת דור,34.92815217,32.62326685,,,לפרוייקטים בתחנה/מקטע,מפת ענפים,תפעולית
3633,חיפה חוף הכרמל,תחנת רכבת חיפה חוף הכרמל,34.95746004,32.79346942,,,לפרוייקטים בתחנה/מקטע,חפ/ 1332/ ט/ 1,נוסעים
3634,בית שמש,תחנת רכבת בית שמש,34.98944647,31.75774009,,,לפרוייקטים בתחנה/מקטע,בש/ 200,נוסעים
3635,רינתיה,תחנת רכבת רינתיה,34.935872,32.04168081,,,לפרוייקטים בתחנה/מקטע,מפת ענפים,בתכנון
3637,זכרון יעקב,תחנת רכבת זכרון יעקב,34.93165887,32.57092052,,,לפרוייקטים בתחנה/מקטע,תתל/ 65/ א,תפעולית
3638,חוצות המפרץ,תחנת רכבת חוצות המפרץ,35.05445336,32.80936964,,,לפרוייקטים בתחנה/מקטע,חפ/ 222,נוסעים
3639,כפר יהושע,תחנת רכבת כפר יהושע,35.15371618,32.67161363,,,לפרוייקטים בתחנה/מקטע,תחנה הסטורית,הסטורית
3640,גבע,תחנת רכבת גבע,35.36326169,32.55654663,,,לפרוייקטים בתחנה/מקטע,תחנה הסטורית,הסטורית
3641,"כפר חב""ד","תחנת רכבת כפר חב""ד",34.85294381,31.99312455,,,לפרוייקטים בתחנה/מקטע,גז/ 525/ 12,נוסעים
3642,פתח תקווה סגולה,תחנת רכבת פתח תקווה סגולה,34.90122547,32.11199621,,,לפרוייקטים בתחנה/מקטע,"מח/ 113, תמא/ 47/ ג/ 1/ 2",נוסעים
3643,בת ים יוספטל,תחנת רכבת בת ים יוספטל,34.76204519,32.01452306,,,לפרוייקטים בתחנה/מקטע,תדמת/ 2001,נוסעים
3644,חולון וולפסון,תחנת רכבת חולון וולפסון,34.75963487,32.03534397,,,לפרוייקטים בתחנה/מקטע,תדמת/ 2001,נוסעים
3645,שער צומת חולון,תחנת רכבת שער צומת חולון,34.77640771,32.03704393,,,לפרוייקטים בתחנה/מקטע,תדמת/ 2001,נוסעים
3646,בת ים קוממיות,תחנת רכבת בת ים קוממיות,34.75941616,32.000866,,,לפרוייקטים בתחנה/מקטע,תדמת/ 2001,נוסעים
3647,ראשון לציון הראשונים,תחנת רכבת ראשון לציון הראשונים,34.80260551,31.94887902,,,לפרוייקטים בתחנה/מקטע,413-0351288,נוסעים
3648,יסודות,תחנת רכבת יסודות,34.84428297,31.81920472,,,לפרוייקטים בתחנה/מקטע,צו 4,הסטורית
3649,קרית מלאכי יואב,תחנת רכבת קרית מלאכי יואב,34.82199545,31.74692391,,,לפרוייקטים בתחנה/מקטע,תתל/ 3/ 4/ 9/ א,נוסעים
3650,קרית גת,תחנת רכבת קרית גת,34.77784719,31.60341412,,,לפרוייקטים בתחנה/מקטע,תתל/ 3/ 4/ 9/ א,נוסעים
3651,רמת חובב,תחנת רכבת רמת חובב,34.79178833,31.14110497,,,לפרוייקטים בתחנה/מקטע,40/110/03/19,מסוף מטענים
3652,קרית גת החדשה,תחנת רכבת קרית גת החדשה,34.76046923,31.59911238,,,לפרוייקטים בתחנה/מקטע,6 /03 /110,בתכנון
3653,שלווה,תחנת רכבת שלווה,34.77421756,31.56588793,,,לפרוייקטים בתחנה/מקטע,צו 4,הסטורית
3654,נחל שורק,תחנת רכבת נחל שורק,34.87676574,31.80502416,,,לפרוייקטים בתחנה/מקטע,הסטורית,תפעולית
3655,הר צין,תחנת רכבת הר צין,35.08633768,30.84023084,,,לפרוייקטים בתחנה/מקטע,תכנית 4/115/03/10,מסוף מטענים
3658,דבירה,תחנת רכבת דבירה,34.79137843,31.42263096,,,לפרוייקטים בתחנה/מקטע,מפת ענפים,תפעולית
3659,צפון מטרופולין מסילה מזרחית,תחנת רכבת צפון מטרופולין מסילה מזרחית,34.96459655,32.21214547,,,לפרוייקטים בתחנה/מקטע,תתל/22,מסוף בתכנון
3660,מסוף ראש העין דרום,תחנת רכבת מסוף ראש העין דרום,34.93455619,32.10372321,,,לפרוייקטים בתחנה/מקטע,תתל/22,מסוף מטענים
3661,שוהם,תחנת רכבת שוהם,34.90795522,31.99527186,,,לפרוייקטים בתחנה/מקטע,תתל/ 22,בתכנון
3662,באר יעקב,תחנת רכבת באר יעקב,34.82854532,31.93284531,,,לפרוייקטים בתחנה/מקטע,מח/ 120,נוסעים
3663,יבנה מזרח,תחנת רכבת יבנה מזרח,34.74402372,31.86179213,,,לפרוייקטים בתחנה/מקטע,מח/ 140,נוסעים
3664,בצת,תחנת רכבת בצת,35.10641253,33.06771713,,,לפרוייקטים בתחנה/מקטע,תחנה הסטורית,הסטורית
3665,עפולה ישן,תחנת רכבת עפולה ישן,35.29010263,32.61053684,,,לפרוייקטים בתחנה/מקטע,תחנה הסטורית,הסטורית
3666,מתחם קישון (סדנאות אפריים),תחנת רכבת מתחם קישון (סדנאות אפריים),35.05239204,32.8106807,,,לפרוייקטים בתחנה/מקטע,"חפ/ 222, תתל/ 45",תפעולית
3667,הוד השרון סוקולוב,תחנת רכבת הוד השרון סוקולוב,34.90148292,32.17020201,,,לפרוייקטים בתחנה/מקטע,הר/113/1,נוסעים
3668,יבנה צפון,תחנת רכבת יבנה צפון,34.76923558,31.88207281,,,לפרוייקטים בתחנה/מקטע,מח/ 140,תפעולית
3669,תל אביב - סבידור מרכז,תחנת רכבת תל אביב - סבידור מרכז,34.79825161,32.08381441,,,לפרוייקטים בתחנה/מקטע,צו 6/תא 2000,נוסעים
3670,פתח תקווה קרית אריה,תחנת רכבת פתח תקווה קרית אריה,34.86310124,32.10613246,,,לפרוייקטים בתחנה/מקטע,מח/ 113,נוסעים
3671,"נתב""ג","תחנת רכבת נתב""ג",34.87065718,32.00066558,,,לפרוייקטים בתחנה/מקטע,תמא/2/4,נוסעים
3674,ראשון לציון משה דיין,תחנת רכבת ראשון לציון משה דיין,34.75737907,31.98786099,,,לפרוייקטים בתחנה/מקטע,מח/147 או תדמת 2001,נוסעים
3675,כרמיאל,תחנת רכבת כרמיאל,35.2971324,32.92402924,,,לפרוייקטים בתחנה/מקטע,תתל 12/ 2,נוסעים
3676,כרמיאל מחוז צפון מרכז,תחנת רכבת כרמיאל מחוז צפון מרכז,35.33828795,32.92945784,,,לפרוייקטים בתחנה/מקטע,217-0660522,מסוף בתכנון
3677,ראש פינה צחר,תחנת רכבת ראש פינה צחר,35.56010962,32.97957217,,,לפרוייקטים בתחנה/מקטע,217-0660522,בתכנון
3679,קרית שמונה,תחנת רכבת קרית שמונה,35.58271466,33.20692864,,,לפרוייקטים בתחנה/מקטע,217-0660522,בתכנון
3680,אחיהוד,תחנת רכבת אחיהוד,35.17397171,32.91146926,,,לפרוייקטים בתחנה/מקטע,תתל/ 12/ 2,נוסעים
3681,רעננה מערב,תחנת רכבת רעננה מערב,34.8508006,32.17999941,,,לפרוייקטים בתחנה/מקטע,תתל/ 15,נוסעים
3682,רעננה דרום,תחנת רכבת רעננה דרום,34.88618504,32.17260631,,,לפרוייקטים בתחנה/מקטע,תתל/ 15 מח/ 113,נוסעים
3683,מזכרת בתיה,תחנת רכבת מזכרת בתיה,34.85603972,31.84216936,,,לפרוייקטים בתחנה/מקטע,תתל/ 3/ 4/ 9/ א,נוסעים
3684,מחלף גדרה,תחנת רכבת מחלף גדרה,34.77263663,31.7995581,,,לפרוייקטים בתחנה/מקטע,תתל/ 79,בתכנון
3685,כפר סבא צפון,תחנת רכבת כפר סבא צפון,34.95495313,32.1931697,,,לפרוייקטים בתחנה/מקטע,תתל/22,בתכנון
3686,פארן,תחנת רכבת פארן,35.18201871,30.3642992,,,לפרוייקטים בתחנה/מקטע,תמא 23,בתכנון
3687,לוד גני אביב,תחנת רכבת לוד גני אביב,34.87864728,31.96694019,,,לפרוייקטים בתחנה/מקטע,לד/ 751,נוסעים
3688,ירוחם נוסעים,תחנת רכבת ירוחם נוסעים,34.93849046,30.99000371,,,לפרוייקטים בתחנה/מקטע,תכנית 607-0193185,בתכנון
3689,סדום,תחנת רכבת סדום,35.3630303,31.036527,,,לפרוייקטים בתחנה/מקטע,תמא 23,בתכנון
3690,ארז,תחנת רכבת ארז,34.54584895,31.5575407,,,לפרוייקטים בתחנה/מקטע,תמא 23,בתכנון
3691,אילת,תחנת רכבת אילת,34.94011136,29.53385568,,,לפרוייקטים בתחנה/מקטע,תמא 23,בתכנון
3692,יוטבתה,תחנת רכבת יוטבתה,35.06506034,29.8924949,,,לפרוייקטים בתחנה/מקטע,תמא 23,בתכנון
3693,יהל,תחנת רכבת יהל,35.13784312,30.07876966,,,לפרוייקטים בתחנה/מקטע,תמא 23,בתכנון
3694,בתיר,תחנת רכבת בתיר,35.14148986,31.73229271,,,לפרוייקטים בתחנה/מקטע,היסטורית,תפעולית
3695,בר גיורא,תחנת רכבת בר גיורא,35.07428147,31.74768941,,,לפרוייקטים בתחנה/מקטע,היסטורית,תפעולית
3696,צריפין,תחנת רכבת צריפין,34.83933153,31.9600827,,,לפרוייקטים בתחנה/מקטע,תחנה הסטורית,הסטורית
3697,ערד,תחנת רכבת ערד,35.20520338,31.25196337,,,לפרוייקטים בתחנה/מקטע,652-0203216,בתכנון
3698,רמת בקע,תחנת רכבת רמת בקע,34.87762665,31.11197606,,,לפרוייקטים בתחנה/מקטע,תמא 23,בתכנון
3699,אשלים,תחנת רכבת אשלים,34.70537907,30.95747982,,,לפרוייקטים בתחנה/מקטע,תמא 23/ 10,בתכנון
3700,גורל דרום,תחנת רכבת גורל דרום,34.79267952,31.30926674,,,לפרוייקטים בתחנה/מקטע,מפת ענפים,תפעולית
3701,גורל מערב,תחנת רכבת גורל מערב,34.78409938,31.32557278,,,לפרוייקטים בתחנה/מקטע,מפת ענפים,תפעולית
3702,ענבה,תחנת רכבת ענבה,34.9512324,31.88121046,,,לפרוייקטים בתחנה/מקטע,מפת ענפים,תפעולית
3703,העמקים,תחנת רכבת העמקים,35.09498525,32.72508381,,,לפרוייקטים בתחנה/מקטע,תתל 13_2_6,בתכנון
3704,תל יוסף,תחנת רכבת תל יוסף,35.36213058,32.55729941,,,לפרוייקטים בתחנה/מקטע,תתל 13_2_6,תפעולית
3705,גשר,תחנת רכבת גשר,35.56109248,32.61960766,,,לפרוייקטים בתחנה/מקטע,תמא 23,בתכנון
3537,משאבי שדה,תחנת רכבת משאבי שדה,34.78619546,31.01180587,,,לפרוייקטים בתחנה/מקטע,תמא 23,בתכנון
3538,ניצנה,תחנת רכבת ניצנה,34.42184965,30.88686569,,,לפרוייקטים בתחנה/מקטע,תמא 23,בתכנון
3539,נבטים,תחנת רכבת נבטים,34.93607249,31.19467034,,,לפרוייקטים בתחנה/מקטע,מפת ענפים,תפעולית
3540,סביוני ים,תחנת רכבת סביוני ים,35.08715632,32.8572258,,,לפרוייקטים בתחנה/מקטע,ק/ 408,בתכנון
3541,טירת הכרמל,תחנת רכבת טירת הכרמל,34.96786042,32.75741508,,,לפרוייקטים בתחנה/מקטע,תמא 23,בתכנון
3542,קרית ספיר נתניה,תחנת רכבת קרית ספיר נתניה,34.8654004,32.27949415,,,לפרוייקטים בתחנה/מקטע,נת/ 368/ 20,נוסעים
3543,ירושלים חאן,תחנת רכבת ירושלים חאן,35.2244363,31.76762983,,,לפרוייקטים בתחנה/מקטע,,הסטורית
3544,ראש הנקרה,תחנת רכבת ראש הנקרה,35.10452213,33.09334415,,,לפרוייקטים בתחנה/מקטע,תחנה הסטורית,הסטורית
3545,טבריה,תחנת רכבת טבריה,35.50305302,32.77151419,,,לפרוייקטים בתחנה/מקטע,תממ/ 2,בתכנון
3546,צומת גולני,תחנת רכבת צומת גולני,35.42887782,32.78004608,,,לפרוייקטים בתחנה/מקטע,תממ/ 2,בתכנון
3549,נהר הירדן,תחנת רכבת נהר הירדן,35.57392506,32.49697781,,,לפרוייקטים בתחנה/מקטע,תתל/ 13/ א/ 1,בתכנון
3551,רוטנברג,תחנת רכבת רוטנברג,34.53162872,31.62389072,,,לפרוייקטים בתחנה/מקטע,243 /03 /6,בתכנון
3552,ראשון לציון מכללות,תחנת רכבת ראשון לציון מכללות,34.77157976,31.97199831,,,לפרוייקטים בתחנה/מקטע,מח/ 147,בתכנון
3554,עין יהב,תחנת רכבת עין יהב,35.21237889,30.64820955,,,לפרוייקטים בתחנה/מקטע,מסילת ברזל באר שבע - אילת קטע צפוני,בתכנון
3556,יבנה מערב,תחנת רכבת יבנה מערב,34.73146914,31.89116774,,,לפרוייקטים בתחנה/מקטע,מח/ 148,נוסעים
3557,עוז שלום (קרני),תחנת רכבת עוז שלום (קרני),34.49208351,31.48156959,,,לפרוייקטים בתחנה/מקטע,תמא 23/ 10,בתכנון
3558,רמלה - ק. האומנים,תחנת רכבת רמלה - ק. האומנים,34.86486379,31.91606985,,,לפרוייקטים בתחנה/מקטע,מח/ 273,בבניה
3560,יצחק שדה,תחנת רכבת יצחק שדה,34.79032366,32.0649734,,,לפרוייקטים בתחנה/מקטע,תתל/ 33,בתכנון
3561,שפירים,תחנת רכבת שפירים,34.84367857,32.00184039,,,לפרוייקטים בתחנה/מקטע,תתל/ 33,בתכנון
3562,ראשון לציון מרכז,תחנת רכבת ראשון לציון מרכז,34.78491108,31.9663375,,,לפרוייקטים בתחנה/מקטע,מח/ 147,בתכנון
3563,גלילות דרום,תחנת רכבת גלילות דרום,34.81008993,32.13201374,,,לפרוייקטים בתחנה/מקטע,רש/800,בתכנון
3564,גלילות צפון,תחנת רכבת גלילות צפון,34.81074934,32.14601024,,,לפרוייקטים בתחנה/מקטע,רש/760,בתכנון
3565,צומת דניאל,תחנת רכבת צומת דניאל,34.93701721,31.90544635,,,לפרוייקטים בתחנה/מקטע,מפת ענפים,תפעולית
3566,צומת זבולון,תחנת רכבת צומת זבולון,35.01721389,32.80004536,,,לפרוייקטים בתחנה/מקטע,מפת ענפים,תפעולית
3567,צומת נעמן,תחנת רכבת צומת נעמן,35.08862755,32.8899328,,,לפרוייקטים בתחנה/מקטע,מפת ענפים,תפעולית
3568,צומת רמז,תחנת רכבת צומת רמז,34.94756287,32.47022071,,,לפרוייקטים בתחנה/מקטע,מפת ענפים,תפעולית
3569,צומת יוספטל,תחנת רכבת צומת יוספטל,34.76138322,32.0207079,,,לפרוייקטים בתחנה/מקטע,מפת ענפים,תפעולית
3570,צומת תל ברוך,תחנת רכבת צומת תל ברוך,34.81035869,32.12218309,,,לפרוייקטים בתחנה/מקטע,מפת ענפים,תפעולית
3571,ראשון לציון דרום,תחנת רכבת ראשון לציון דרום,34.75627203,31.97332382,,,לפרוייקטים בתחנה/מקטע,מפת ענפים,תפעולית
3572,צומת חמד,תחנת רכבת צומת חמד,34.93545925,32.14897893,,,לפרוייקטים בתחנה/מקטע,מפת ענפים,תפעולית
3573,ראש העין מערב,תחנת רכבת ראש העין מערב,34.92390623,32.11057931,,,לפרוייקטים בתחנה/מקטע,מפת ענפים,תפעולית
3574,ניצנים,תחנת רכבת ניצנים,34.62856711,31.71528951,,,לפרוייקטים בתחנה/מקטע,מפת ענפים,תפעולית
3575,צומת גנות,תחנת רכבת צומת גנות,34.82262424,32.01731728,,,לפרוייקטים בתחנה/מקטע,מפת ענפים,תפעולית
3576,נתב''ג תפעולי,תחנת רכבת נתב''ג תפעולי,34.88401832,31.99243979,,,לפרוייקטים בתחנה/מקטע,מפת ענפים,תפעולית
3577,ערוער,תחנת רכבת ערוער,34.99816575,31.147999,,,לפרוייקטים בתחנה/מקטע,מפת ענפים,תפעולית
3578,ממשית,תחנת רכבת ממשית,35.07295191,31.03745712,,,לפרוייקטים בתחנה/מקטע,מפת ענפים,תפעולית
3579,שקמה,תחנת רכבת שקמה,34.58572991,31.62368059,,,לפרוייקטים בתחנה/מקטע,מפת ענפים,תפעולית
3580,אחוזם,תחנת רכבת אחוזם,34.78238487,31.53471751,,,לפרוייקטים בתחנה/מקטע,מפת ענפים,תפעולית
3581,תל נגילה,תחנת רכבת תל נגילה,34.78267553,31.48179079,,,לפרוייקטים בתחנה/מקטע,מפת ענפים,תפעולית
3583,צומת פלשת,תחנת רכבת צומת פלשת,34.71853326,31.84293087,,,לפרוייקטים בתחנה/מקטע,מפת ענפים,תפעולית
3584,טירה-כוכב יאיר,תחנת רכבת טירה-כוכב יאיר,34.97679384,32.22988291,,,לפרוייקטים בתחנה/מקטע,תתל/22,בבניה
3586,משמר אילון,תחנת רכבת משמר אילון,34.97145097,31.86773584,,,לפרוייקטים בתחנה/מקטע,תמא 16/23/א/1,תפעולית
3587,"ק""מ 187","תחנת רכבת ק""מ 187",35.22315564,30.83704787,,,לפרוייקטים בתחנה/מקטע,צו 32,בתכנון
3588,שדרות תפעולית,תחנת רכבת שדרות תפעולית,34.59019667,31.49896709,,,לפרוייקטים בתחנה/מקטע,תתל4/14/ב,תפעולית
3589,נשר,תחנת רכבת נשר,35.0469034,32.77536571,,,לפרוייקטים בתחנה/מקטע,תתל 13_2_6,תפעולית
3590,קרית אתא,תחנת רכבת קרית אתא,35.10962836,32.81862656,,,לפרוייקטים בתחנה/מקטע,תמא 23/ 15,בתכנון
3591,יגור,תחנת רכבת יגור,35.07773147,32.74365723,,,לפרוייקטים בתחנה/מקטע,תחנה הסטורית,הסטורית
3592,אלרואי,תחנת רכבת אלרואי,35.10291421,32.70942827,,,לפרוייקטים בתחנה/מקטע,תחנה הסטורית,הסטורית
3593,קרית חרושת,תחנת רכבת קרית חרושת,35.1079908,32.69220439,,,לפרוייקטים בתחנה/מקטע,תחנה הסטורית,הסטורית
3594,חדרה מערב,תחנת רכבת חדרה מערב,34.89929408,32.4381523,,,לפרוייקטים בתחנה/מקטע,"חד/ 1300 , צו 1",נוסעים
3596,אשקלון,תחנת רכבת אשקלון,34.6047805,31.67667121,,,לפרוייקטים בתחנה/מקטע,4 /106 /03 /4(ד/ 277/ ו),נוסעים
3597,בנימינה,תחנת רכבת בנימינה,34.94991984,32.51441542,,,לפרוייקטים בתחנה/מקטע,ש/ 23/ א,נוסעים
3598,באר שבע מרכז,תחנת רכבת באר שבע מרכז,34.79832346,31.24321895,,,לפרוייקטים בתחנה/מקטע,22 /102 /02 /5,נוסעים
3599,באר שבע אוניברסיטה,תחנת רכבת באר שבע אוניברסיטה,34.80921192,31.26195546,,,לפרוייקטים בתחנה/מקטע,5 /02 /102 /103,נוסעים
3600,חדרה מזרח,תחנת רכבת חדרה מזרח,34.95080301,32.44475411,,,לפרוייקטים בתחנה/מקטע,תתל/22,מסוף מטענים
3601,חיפה בת גלים,תחנת רכבת חיפה בת גלים,34.98179869,32.83054016,,,לפרוייקטים בתחנה/מקטע,חפ/ 1501,נוסעים
3602,חיפה מרכז השמונה,תחנת רכבת חיפה מרכז השמונה,34.9970313,32.82215916,,,לפרוייקטים בתחנה/מקטע,חפ/ 1144,נוסעים
3603,חיפה מזרח,תחנת רכבת חיפה מזרח,35.0072284,32.80990292,,,לפרוייקטים בתחנה/מקטע,חפ/ 146,תפעולית
3604,לוד,תחנת רכבת לוד,34.87865572,31.94690096,,,לפרוייקטים בתחנה/מקטע,לד/ 1000,נוסעים
3706,צמח,תחנת רכבת צמח,35.59352911,32.70445301,,,לפרוייקטים בתחנה/מקטע,תמא 23,בתכנון
3707,חמת גדר,תחנת רכבת חמת גדר,35.66655177,32.68681277,,,לפרוייקטים בתחנה/מקטע,תמא 23,בתכנון
3708,אחיטוב,תחנת רכבת אחיטוב,35.00304325,32.38149513,,,לפרוייקטים בתחנה/מקטע,תתל/22,בבניה
3709,טייבה (שער אפריים),תחנת רכבת טייבה (שער אפריים),34.99629584,32.27648081,,,לפרוייקטים בתחנה/מקטע,תתל/22,בבניה
3710,מודיעין מרכז,תחנת רכבת מודיעין מרכז,35.00567228,31.90112434,,,לפרוייקטים בתחנה/מקטע,צו 56 מד/ 23,נוסעים
3711,בני דרום,תחנת רכבת בני דרום,34.70154565,31.81970238,,,לפרוייקטים בתחנה/מקטע,מח/ 140,בתכנון
3712,שבי ציון עין שרה,תחנת רכבת שבי ציון עין שרה,35.09112498,32.98794519,,,לפרוייקטים בתחנה/מקטע,ג/15798,בתכנון
3713,תעופה דרום,תחנת רכבת תעופה דרום,34.90068533,31.9703477,,,לפרוייקטים בתחנה/מקטע,מפת ענפים,תפעולית
3714,"מתחם רג""מ","תחנת רכבת מתחם רג""מ",34.89707702,31.9230618,,,לפרוייקטים בתחנה/מקטע,תתל/ 45/ א,מסוף בתכנון
3715,תעופה מערב,תחנת רכבת תעופה מערב,34.89849881,31.98076725,,,לפרוייקטים בתחנה/מקטע,מפת ענפים,תפעולית
3716,עיר הבהדים,תחנת רכבת עיר הבהדים,34.84005641,31.05991297,,,לפרוייקטים בתחנה/מקטע,ד/ 11/ 03/ 266,בתכנון
3717,ירושלים יצחק נבון,תחנת רכבת ירושלים יצחק נבון,35.20263012,31.78844749,,,לפרוייקטים בתחנה/מקטע,"תמא/ 23/ 16/ א/ 2, צו 57",נוסעים
3718,קרית חיים,תחנת רכבת קרית חיים,35.06422508,32.82480376,,,לפרוייקטים בתחנה/מקטע,תמא/ 23/ 15,נוסעים
3719,כסייפה,תחנת רכבת כסייפה,35.10525269,31.23013247,,,לפרוייקטים בתחנה/מקטע,652-0203216,בתכנון
3720,חצבה,תחנת רכבת חצבה,35.23444751,30.77513833,,,לפרוייקטים בתחנה/מקטע,מסילת ברזל באר שבע - אילת קטע צפוני,בתכנון
3721,מרכז ספיר,תחנת רכבת מרכז ספיר,35.19255111,30.60832374,,,לפרוייקטים בתחנה/מקטע,מסילת ברזל באר שבע - אילת קטע צפוני,בתכנון
3723,מרכזית המפרץ קו העמק (לב המפרץ מזרח),תחנת רכבת מרכזית המפרץ קו העמק (לב המפרץ מזרח),35.03365428,32.79249447,,,לפרוייקטים בתחנה/מקטע,תתל_13_2_6,נוסעים
3725,לוד צפון,תחנת רכבת לוד צפון,34.89776252,31.96249911,,,לפרוייקטים בתחנה/מקטע,תתל 22,בתכנון
3726,נבטים ערוער,תחנת רכבת נבטים ערוער,35.03814458,31.16945683,,,לפרוייקטים בתחנה/מקטע,ד/265/03/11,בתכנון
3727,אשדוד נמל היובל,תחנת רכבת אשדוד נמל היובל,34.64862671,31.8232105,,,לפרוייקטים בתחנה/מקטע,מפת הענפים,בתכנון
3728,מגרש חיפה מתחם דיזלים,תחנת רכבת מגרש חיפה מתחם דיזלים,35.01286281,32.80442054,,,לפרוייקטים בתחנה/מקטע,חפ/ 146,תפעולית
3729,עפולה צפון,תחנת רכבת עפולה צפון,35.29453547,32.62144903,,,לפרוייקטים בתחנה/מקטע,תתל 13_2_6,נוסעים
3730,מגדל העמק כפר ברוך,תחנת רכבת מגדל העמק כפר ברוך,35.20947215,32.64740466,,,לפרוייקטים בתחנה/מקטע,תתל 13_2_6,נוסעים
3731,בית שאן - דוד לוי,תחנת רכבת בית שאן - דוד לוי,35.49086277,32.51430129,,,לפרוייקטים בתחנה/מקטע,תתל 13_2_6,נוסעים
3732,יקנעם כפר יהושוע,תחנת רכבת יקנעם כפר יהושוע,35.12311045,32.68213961,,,לפרוייקטים בתחנה/מקטע,תתל 13_2_6,נוסעים
3734,שפרעם,תחנת רכבת שפרעם,35.149546,32.829748,,,לפרוייקטים בתחנה/מקטע,תמא 23/ 15,בתכנון
3735,שפיים,תחנת רכבת שפיים,34.84021455,32.2163304,,,לפרוייקטים בתחנה/מקטע,תתל/ 22,תפעולית
3736,אור עקיבא,תחנת רכבת אור עקיבא,34.93092262,32.51990639,,,לפרוייקטים בתחנה/מקטע,תתל 65/ א,בתכנון
3737,קרית הממשלה,תחנת רכבת קרית הממשלה,35.00057526,32.81776615,,,לפרוייקטים בתחנה/מקטע,תתל/ 65,בתכנון
3738,חדרה צפון,תחנת רכבת חדרה צפון,34.921173,32.447325,,,לפרוייקטים בתחנה/מקטע,תכנית אסטרטגית 2040,בתכנון
3770,מעבר גבול גלבוע,תחנת רכבת מעבר גבול גלבוע,35.28605504,32.5187484,,,לפרוייקטים בתחנה/מקטע,215-0690883,מסוף בתכנון
3772,נמל אשדוד עורף הנמל,תחנת רכבת נמל אשדוד עורף הנמל,34.66074813,31.83203138,,,לפרוייקטים בתחנה/מקטע,קואורדינטות מתכנן,מסוף בתכנון
3773,להבים / דבירה מחוז דרום מרכז,תחנת רכבת להבים / דבירה מחוז דרום מרכז,34.79228803,31.42015639,,,לפרוייקטים בתחנה/מקטע,תכנית אב למטענים,מסוף בתכנון
3774,נתיבות מחוז דרום מערב,תחנת רכבת נתיבות מחוז דרום מערב,34.5789758,31.40694366,,,לפרוייקטים בתחנה/מקטע,מצגת מתכנן מיום 5.2.19,מסוף בתכנון
3775,מעבר גבול ארז,תחנת רכבת מעבר גבול ארז,34.5464725,31.55841803,,,לפרוייקטים בתחנה/מקטע,תכנית אב למטענים,מסוף בתכנון
3776,מסוף קרית גת,תחנת רכבת מסוף קרית גת,34.7820858,31.60218942,,,לפרוייקטים בתחנה/מקטע,שלוחת סוגת שטר מס' 50082/2 גוש 5841 ח' 32,מסוף בתכנון
3777,דימונה,תחנת רכבת דימונה,35.00575172,31.07029257,,,לפרוייקטים בתחנה/מקטע,תכנית 607-0320622,מסוף מטענים
3778,מעבר גבול תרקומייא,תחנת רכבת מעבר גבול תרקומייא,34.96124383,31.59719975,,,לפרוייקטים בתחנה/מקטע,קואורדינטות מתכנן,מסוף בתכנון
3779,תמר,תחנת רכבת תמר,35.24751247,31.03165246,,,לפרוייקטים בתחנה/מקטע,656-0547208,בתכנון
3780,מסוף תמר,תחנת רכבת מסוף תמר,35.24748073,31.0316589,,,לפרוייקטים בתחנה/מקטע,656-0547208,מסוף בתכנון
3781,מסוף חדרה מערב,תחנת רכבת מסוף חדרה מערב,34.89857338,32.43832396,,,לפרוייקטים בתחנה/מקטע,תכנית חד/2020,מסוף מטענים
3782,מסוף בני ברק,תחנת רכבת מסוף בני ברק,34.82984675,32.10263306,,,לפרוייקטים בתחנה/מקטע,"צו 1,29 בב/ 572",מסוף מטענים
3783,מסוף קרית גת,תחנת רכבת מסוף קרית גת,34.77860063,31.60391843,,,לפרוייקטים בתחנה/מקטע,שלוחת סוגת שטר מס' 50082/2 גוש 5841 ח' 32,מסוף מטענים
5715,מודיעין תמא 14ב,תחנת רכבת מודיעין תמא 14ב,34.96981154,32.02094895,,,לפרוייקטים בתחנה/מקטע,תכנית אב למטענים,מסוף בתכנון
3785,מסוף בית שאן,תחנת רכבת מסוף בית שאן,35.49319266,32.51313166,,,לפרוייקטים בתחנה/מקטע,תכנית תתל/ 13/ 2/ 6,מסוף מטענים
5716,ברקת תמא 14ב,תחנת רכבת ברקת תמא 14ב,34.9514495,32.02490881,,,לפרוייקטים בתחנה/מקטע,תכנית אב למטענים,מסוף בתכנון
3787,מסוף תעופה,תחנת רכבת מסוף תעופה,34.91571347,31.97374111,,,לפרוייקטים בתחנה/מקטע,תתל/ 126,מסוף בתכנון
3788,"מרלו""ג בני שמעון","תחנת רכבת מרלו""ג בני שמעון",34.85292944,31.21421191,,,לפרוייקטים בתחנה/מקטע,625-0478255,מסוף בתכנון
3789,מעבר גבול נהר הירדן,תחנת רכבת מעבר גבול נהר הירדן,35.56507922,32.49664282,,,לפרוייקטים בתחנה/מקטע,תתל/ 13/ א/ 1,מסוף בתכנון
3790,עורף נמל חיפה,תחנת רכבת עורף נמל חיפה,35.0366713,32.80876293,,,לפרוייקטים בתחנה/מקטע,304-0098590,מסוף בתכנון
3791,קדמה,תחנת רכבת קדמה,34.81213476,31.70591669,,,לפרוייקטים בתחנה/מקטע,632-0552844,מסוף בתכנון
3792,בית שמש מחוז ירושלים,תחנת רכבת בית שמש מחוז ירושלים,34.9591219,31.75520915,,,לפרוייקטים בתחנה/מקטע,תתל/ 125,מסוף בתכנון
3793,ירוחם מטענים,תחנת רכבת ירוחם מטענים,34.95962512,30.99835082,,,לפרוייקטים בתחנה/מקטע,תכנית 607-0193185,בתכנון
3794,אייל,תחנת רכבת אייל,34.96510405,32.21279466,,,לפרוייקטים בתחנה/מקטע,תתל/22,בבניה
4114,מתחם באר שבע צפון (האוניברסיטה),תחנת רכבת מתחם באר שבע צפון (האוניברסיטה),34.81297654,31.25982731,,,לפרוייקטים בתחנה/מקטע,5 /02 /102 /103,תפעולית
5074,מתחם לוד,תחנת רכבת מתחם לוד,34.87711012,31.94873424,,,לפרוייקטים בתחנה/מקטע,לד/ 1000,תפעולית
5714,טירת יהודה מסילה מזרחית דרום,תחנת רכבת טירת יהודה מסילה מזרחית דרום,34.95475449,32.02016297,,,לפרוייקטים בתחנה/מקטע,צו 18 שלוחת ברקת טירת יהודה,מסוף בתכנון
5730,מרכז העסקים מודיעין,תחנת רכבת מרכז העסקים מודיעין,34.98261547,31.91908063,,,לפרוייקטים בתחנה/מקטע,420-0514364,בתכנון
3672,ירושלים גן חיות התנ''כי,תחנת רכבת ירושלים גן חיות התנ''כי,35.17806029,31.74488509,,,לפרוייקטים בתחנה/מקטע,תוכנית ביצוע לשדרוג המסילה לירושלי,נוסעים
3595,אשדוד מיון,תחנת רכבת אשדוד מיון,34.65683551,31.82231432,,,לפרוייקטים בתחנה/מקטע,"צו 24 כניסה דרומית לנמל אשדוד ,3/ 02/ 10",תפעולית
3771,מעבר גבול גלבוע,תחנת רכבת מעבר גבול גלבוע,35.28597657,32.50943722,,,לפרוייקטים בתחנה/מקטע,215-0690883,בתכנון
6356,מתחם תעבורה,תחנת רכבת מתחם תעבורה,34.87955811,31.92727406,,,לפרוייקטים בתחנה/מקטע,תתל/ 45/ א,בתכנון
6675,נתיבות צפון,תחנת רכבת נתיבות צפון,34.56505448,31.44953237,,,לפרוייקטים בתחנה/מקטע,תמל/ 1124/ א,בתכנון
3555,שלוחת תמרה,תחנת רכבת שלוחת תמרה,35.20541824,32.86757632,,,לפרוייקטים בתחנה/מקטע,תמא 23,בתכנון
3585,אלעד - פתח תקווה דרום,תחנת רכבת אלעד - פתח תקווה דרום,34.93317563,32.06428071,,,לפרוייקטים בתחנה/מקטע,תתל/22,בבניה
3636,מרכזית המפרץ קו החוף (לב המפרץ),תחנת רכבת מרכזית המפרץ קו החוף (לב המפרץ),35.03708039,32.79382196,,,לפרוייקטים בתחנה/מקטע,חפ/ 2000,נוסעים
3656,אורון,תחנת רכבת אורון,34.98945595,30.89725394,,,לפרוייקטים בתחנה/מקטע,צו 32,תפעולית
3678,גונן,תחנת רכבת גונן,35.5733399,33.1227714,,,לפרוייקטים בתחנה/מקטע,217-0660522,בתכנון
3724,כפר מנחם,תחנת רכבת כפר מנחם,34.82337314,31.75536569,,,לפרוייקטים בתחנה/מקטע,מפת ענפים,תפעולית
3553,רמת חובב(בתכנון),תחנת רכבת רמת חובב(בתכנון),34.80645547,31.14138052,,,לפרוייקטים בתחנה/מקטע,ד/ 11/ 03/ 266,בתכנון
3582,להבים דרום,תחנת רכבת להבים דרום,34.79524981,31.33354606,,,לפרוייקטים בתחנה/מקטע,מפת ענפים,תפעולית
3657,"ק""מ 157","תחנת רכבת ק""מ 157",34.97921918,30.79774388,,,לפרוייקטים בתחנה/מקטע,צו 32,תפעולית
3673,להבים רהט,תחנת רכבת להבים רהט,34.79820602,31.36979835,,,לפרוייקטים בתחנה/מקטע,תתל/ 3/ 4/ 9/ א,נוסעים
3722,קרית מוצקין,תחנת רכבת קרית מוצקין,35.06961282,32.83271561,,,לפרוייקטים בתחנה/מקטע,תמא/ 23/ 15,נוסעים
3745,ירושלים מרכז,תחנת רכבת ירושלים מרכז,35.21693471,31.7842945,,,לפרוייקטים בתחנה/מקטע,תתל/ 108,בתכנון
4434,תחנת תחבורה ציבורית סגולה,תחנת רכבת תחנת תחבורה ציבורית סגולה,34.90119201,32.11151893,,,לפרוייקטים בתחנה/מקטע,תמא/ 47/ ג/ 1/ 2,בתכנון
4754,עמק חפר,תחנת רכבת עמק חפר,34.88898127,32.40096003,,,לפרוייקטים בתחנה/מקטע,תתל/ 65/ א,בתכנון
3621,אופקים,תחנת רכבת אופקים,34.63381118,31.32145005,,,לפרוייקטים בתחנה/מקטע,"צו 68, תתל/ 4/ 14",נוסעים
6354,רמלה מערב,תחנת רכבת רמלה מערב,34.85631991,31.94050616,,,לפרוייקטים בתחנה/מקטע,מח/ 120,בתכנון
5394,החאן,תחנת רכבת החאן,35.22456549,31.76690686,,,לפרוייקטים בתחנה/מקטע,"101-0307116, תתל 108",בתכנון
5731,מודיעין עילית,תחנת רכבת מודיעין עילית,35.04116055,31.92325428,,,לפרוייקטים בתחנה/מקטע,420-0514364,בתכנון
6034,שוקת/ליקית - קרית המודיעין,תחנת רכבת שוקת/ליקית - קרית המודיעין,34.87819793,31.30246694,,,לפרוייקטים בתחנה/מקטע,,בתכנון
6355,בת חפר,תחנת רכבת בת חפר,35.00718487,32.33901781,,,לפרוייקטים בתחנה/מקטע,תמא/ 23/ 18/ א,בתכנון
6994,חיפה בת גלים - מתוכננת,תחנת רכבת חיפה בת גלים - מתוכננת,198757.2184,748192.3334,,,לפרוייקטים בתחנה/מקטע,תתל/ 65,בתכנון
3739,חולות,תחנת רכבת חולות,34.741616,31.936006,,,לפרוייקטים בתחנה/מקטע,מח/ 148,בתכנון
3740,ירושלים הכותל,תחנת רכבת ירושלים הכותל,35.23708107,31.77555079,,,לפרוייקטים בתחנה/מקטע,תתל/ 108/ א,בתכנון
3741,אשקלון עיר היין,תחנת רכבת אשקלון עיר היין,34.6044241,31.68431157,,,לפרוייקטים בתחנה/מקטע,165 /101 /02 /4,בתכנון
3742,אשקלון דפו,תחנת רכבת אשקלון דפו,34.60450857,31.67119094,,,לפרוייקטים בתחנה/מקטע,ד/ 277 (106 /03 /4),תפעולית
3743,חריש,תחנת רכבת חריש,35.033416,32.471958,,,לפרוייקטים בתחנה/מקטע,תמא/ 23/ 18/ א,בתכנון
3744,יאסף - בית העמק,תחנת רכבת יאסף - בית העמק,35.146217,32.963006,,,לפרוייקטים בתחנה/מקטע,תמא/ 31/ א/ 9/ 1,בתכנון
3746,ירושלים פת,תחנת רכבת ירושלים פת,35.20418,31.749089,,,לפרוייקטים בתחנה/מקטע,4508,בתכנון
3747,כברי,תחנת רכבת כברי,35.14004687,33.01848977,,,לפרוייקטים בתחנה/מקטע,תמא/ 42,בתכנון
3748,כפר תבור,תחנת רכבת כפר תבור,35.41293952,32.69443071,,,לפרוייקטים בתחנה/מקטע,תמא/ 42,בתכנון
3749,עכו מזרח,תחנת רכבת עכו מזרח,35.124157,32.91378,,,לפרוייקטים בתחנה/מקטע,תתל/ 12/ 2,בתכנון
3750,רחובות גבירול,תחנת רכבת רחובות גבירול,34.794945,31.899439,,,לפרוייקטים בתחנה/מקטע,מח/ 140,בתכנון
3751,חדרה מזרח,תחנת רכבת חדרה מזרח,34.950374,32.44341,,,לפרוייקטים בתחנה/מקטע,תתל/22,בבניה
3752,"ראשון לציון - תש""ח","תחנת רכבת ראשון לציון - תש""ח",34.77699,31.956965,,,לפרוייקטים בתחנה/מקטע,413-0351288,בתכנון
3753,גזר דרום,תחנת רכבת גזר דרום,34.91405905,31.90288567,,,לפרוייקטים בתחנה/מקטע,תתל/ 79,בתכנון
3754,קרית שמונה מחוז צפון צפון,תחנת רכבת קרית שמונה מחוז צפון צפון,35.58278811,33.20788485,,,לפרוייקטים בתחנה/מקטע,217-0660522,מסוף בתכנון
3755,נתניה מכללה,תחנת רכבת נתניה מכללה,34.866839,32.291812,,,לפרוייקטים בתחנה/מקטע,נת/ 400/ 7,בתכנון
3756,פרדס חנה מזרח,תחנת רכבת פרדס חנה מזרח,35.022841,32.506789,,,לפרוייקטים בתחנה/מקטע,תמא/ 23/ 18/ ב,בתכנון
3757,רחבעם,תחנת רכבת רחבעם,34.884522,31.917207,,,לפרוייקטים בתחנה/מקטע,415-0322115,בתכנון
3758,שלומי,תחנת רכבת שלומי,35.119266,33.074073,,,לפרוייקטים בתחנה/מקטע,תמא/ 23/ 21,בתכנון
3759,תמנע,תחנת רכבת תמנע,35.013297,29.759344,,,לפרוייקטים בתחנה/מקטע,608-0150086,בתכנון
3760,טמרה,תחנת רכבת טמרה,35.154163,32.875342,,,לפרוייקטים בתחנה/מקטע,תמא/ 23/ 19,בתכנון
3761,גזר צפון,תחנת רכבת גזר צפון,34.91515576,31.90561484,,,לפרוייקטים בתחנה/מקטע,תתל/ 79,בתכנון
3762,זכרון יעקב,תחנת רכבת זכרון יעקב,34.93229863,32.56998093,,,לפרוייקטים בתחנה/מקטע,תתל/ 65/ א,בתכנון
3763,ראש העין דרום,תחנת רכבת ראש העין דרום,34.934276,32.104832,,,לפרוייקטים בתחנה/מקטע,תתל/ 22,בתכנון
3764,שפיים,תחנת רכבת שפיים,34.83594756,32.21257041,,,לפרוייקטים בתחנה/מקטע,תתל/ 22,בתכנון
3765,מירון,תחנת רכבת מירון,35.39226265,32.92557644,,,לפרוייקטים בתחנה/מקטע,217-0660522,בתכנון
3766,תרקומייא,תחנת רכבת תרקומייא,34.98689511,31.58105108,,,לפרוייקטים בתחנה/מקטע,קבצי מתכננים,בתכנון
3767,יד מרדכי,תחנת רכבת יד מרדכי,34.572016,31.597174,,,לפרוייקטים בתחנה/מקטע,תכנית אסטרטגית 2040,בתכנון
3768,דרום מחוז צפון,תחנת רכבת דרום מחוז צפון,35.20247339,32.6495446,,,לפרוייקטים בתחנה/מקטע,תתל/ 13/ 2/ 6,מסוף בתכנון
3769,חדרה מחוז חיפה דרום,תחנת רכבת חדרה מחוז חיפה דרום,34.93240916,32.45533343,,,לפרוייקטים בתחנה/מקטע,תכנית 302-0197632,מסוף בתכנון